{"businesses": [{"id": "Fr6_lFplLqwiYEP2z1gp_A", "alias": "escondido-pharmacy-escondido-2", "name": "Escondido Pharmacy", "image_url": "https://s3-media1.fl.yelpcdn.com/bphoto/ijaIvpYTJWU1f4tUvzrG7g/o.jpg", "is_closed": false, "url": "https://www.yelp.com/biz/escondido-pharmacy-escondido-2?adjust_creative=hE8bi2YODO-vfPOp0t5Rkw&utm_campaign=yelp_api_v3&utm_medium=api_v3_business_search&utm_source=hE8bi2YODO-vfPOp0t5Rkw", "review_count": 29, "categories": [{"alias": "drugstores", "title": "Drugstores"}, {"alias": "medicalsupplies", "title": "Medical Supplies"}], "rating": 5.0, "coordinates": {"latitude": 33.128447, "longitude": -117.070748}, "transactions": [], "price": "$", "location": {"address1": "909 East Valley Parkway", "address2": null, "address3": "", "city": "Escondido", "zip_code": "92025", "country": "US", "state": "CA", "display_address": ["909 East Valley Parkway", "Escondido, CA 92025"]}, "phone": "+17604801871", "display_phone": "(760) 480-1871", "distance": 561.5474580485868}, {"id": "inHY-t-BiljxB7qsf4KBcg", "alias": "drug-co-pharmacy-escondido", "name": "Drug Co Pharmacy", "image_url": "https://s3-media3.fl.yelpcdn.com/bphoto/rALzcrbKHeuPzMAF0ahmug/o.jpg", "is_closed": false, "url": "https://www.yelp.com/biz/drug-co-pharmacy-escondido?adjust_creative=hE8bi2YODO-vfPOp0t5Rkw&utm_campaign=yelp_api_v3&utm_medium=api_v3_business_search&utm_source=hE8bi2YODO-vfPOp0t5Rkw", "review_count": 20, "categories": [{"alias": "drugstores", "title": "Drugstores"}], "rating": 4.5, "coordinates": {"latitude": 33.1292861, "longitude": -117.0666216}, "transactions": [], "price": "$$", "location": {"address1": "307 N Ash St", "address2": "", "address3": "", "city": "Escondido", "zip_code": "92027", "country": "US", "state": "CA", "display_address": ["307 N Ash St", "Escondido, CA 92027"]}, "phone": "+17607456672", "display_phone": "(760) 745-6672", "distance": 563.7606638966333}, {"id": "aQUdjRYqaBJHHwLRrmMeFA", "alias": "cvs-pharmacy-escondido-8", "name": "CVS Pharmacy", "image_url": "https://s3-media4.fl.yelpcdn.com/bphoto/czNl58yd6VjoUl4GbuHn-A/o.jpg", "is_closed": false, "url": "https://www.yelp.com/biz/cvs-pharmacy-escondido-8?adjust_creative=hE8bi2YODO-vfPOp0t5Rkw&utm_campaign=yelp_api_v3&utm_medium=api_v3_business_search&utm_source=hE8bi2YODO-vfPOp0t5Rkw", "review_count": 82, "categories": [{"alias": "drugstores", "title": "Drugstores"}, {"alias": "pharmacy", "title": "Pharmacy"}, {"alias": "convenience", "title": "Convenience Stores"}], "rating": 2.0, "coordinates": {"latitude": 33.1422, "longitude": -117.0939}, "transactions": [], "price": "$", "location": {"address1": "318 West El Norte Pkwy", "address2": "", "address3": "", "city": "Escondido", "zip_code": "92026", "country": "US", "state": "CA", "display_address": ["318 West El Norte Pkwy", "Escondido, CA 92026"]}, "phone": "+17604891505", "display_phone": "(760) 489-1505", "distance": 2400.568810531319}, {"id": "WD7Z5-RJmXJVNJHpep-hGg", "alias": "el-norte-pharmacy-escondido", "name": "El Norte Pharmacy", "image_url": "https://s3-media2.fl.yelpcdn.com/bphoto/AXhCIullwgdjiZiY0lJ4MA/o.jpg", "is_closed": false, "url": "https://www.yelp.com/biz/el-norte-pharmacy-escondido?adjust_creative=hE8bi2YODO-vfPOp0t5Rkw&utm_campaign=yelp_api_v3&utm_medium=api_v3_business_search&utm_source=hE8bi2YODO-vfPOp0t5Rkw", "review_count": 4, "categories": [{"alias": "pharmacy", "title": "Pharmacy"}], "rating": 5.0, "coordinates": {"latitude": 33.1296186, "longitude": -117.0862575}, "transactions": [], "location": {"address1": "125 W Mission Ave", "address2": "Ste 105", "address3": "", "city": "Escondido", "zip_code": "92025", "country": "US", "state": "CA", "display_address": ["125 W Mission Ave", "Ste 105", "Escondido, CA 92025"]}, "phone": "+17602332100", "display_phone": "(760) 233-2100", "distance": 1545.701778645787}, {"id": "M644K6XHS2DD3V0JmjNnpg", "alias": "mercy-care-pharmacy-escondido", "name": "Mercy Care Pharmacy", "image_url": "https://s3-media2.fl.yelpcdn.com/bphoto/CwTDcvUiDYjcl_rbl1n8eQ/o.jpg", "is_closed": false, "url": "https://www.yelp.com/biz/mercy-care-pharmacy-escondido?adjust_creative=hE8bi2YODO-vfPOp0t5Rkw&utm_campaign=yelp_api_v3&utm_medium=api_v3_business_search&utm_source=hE8bi2YODO-vfPOp0t5Rkw", "review_count": 6, "categories": [{"alias": "drugstores", "title": "Drugstores"}], "rating": 4.0, "coordinates": {"latitude": 33.125614, "longitude": -117.077446}, "transactions": [], "price": "$", "location": {"address1": "488 E Valley Pky", "address2": "Ste 101", "address3": "", "city": "Escondido", "zip_code": "92025", "country": "US", "state": "CA", "display_address": ["488 E Valley Pky", "Ste 101", "Escondido, CA 92025"]}, "phone": "+17602940014", "display_phone": "(760) 294-0014", "distance": 1095.059401804805}, {"id": "1ZMk8DX8xsYZaUTU73Z2CA", "alias": "walgreens-escondido-2", "name": "Walgreens", "image_url": "https://s3-media2.fl.yelpcdn.com/bphoto/rBlBQX1oTA3c0Ho6BiSgVg/o.jpg", "is_closed": false, "url": "https://www.yelp.com/biz/walgreens-escondido-2?adjust_creative=hE8bi2YODO-vfPOp0t5Rkw&utm_campaign=yelp_api_v3&utm_medium=api_v3_business_search&utm_source=hE8bi2YODO-vfPOp0t5Rkw", "review_count": 19, "categories": [{"alias": "cosmetics", "title": "Cosmetics & Beauty Supply"}, {"alias": "drugstores", "title": "Drugstores"}, {"alias": "convenience", "title": "Convenience Stores"}], "rating": 3.5, "coordinates": {"latitude": 33.1041043, "longitude": -117.0754296}, "transactions": [], "price": "$$", "location": {"address1": "460 W Felicita Ave", "address2": null, "address3": null, "city": "Escondido", "zip_code": "92025", "country": "US", "state": "CA", "display_address": ["460 W Felicita Ave", "Escondido, CA 92025"]}, "phone": "+17607356025", "display_phone": "(760) 735-6025", "distance": 3301.4389834411913}, {"id": "sZRew6rFXwSSVpsy3dBkWA", "alias": "walgreens-escondido-4", "name": "Walgreens", "image_url": "https://s3-media2.fl.yelpcdn.com/bphoto/dzzPgB7nXaWVFWf2XapBFw/o.jpg", "is_closed": false, "url": "https://www.yelp.com/biz/walgreens-escondido-4?adjust_creative=hE8bi2YODO-vfPOp0t5Rkw&utm_campaign=yelp_api_v3&utm_medium=api_v3_business_search&utm_source=hE8bi2YODO-vfPOp0t5Rkw", "review_count": 25, "categories": [{"alias": "drugstores", "title": "Drugstores"}, {"alias": "cosmetics", "title": "Cosmetics & Beauty Supply"}, {"alias": "convenience", "title": "Convenience Stores"}], "rating": 2.0, "coordinates": {"latitude": 33.134059, "longitude": -117.0602183}, "transactions": [], "price": "$$", "location": {"address1": "1574 E Valley Pkwy", "address2": "", "address3": "", "city": "Escondido", "zip_code": "92027", "country": "US", "state": "CA", "display_address": ["1574 E Valley Pkwy", "Escondido, CA 92027"]}, "phone": "+17608397932", "display_phone": "(760) 839-7932", "distance": 942.0855510563416}, {"id": "0LH3HzH1WWPJUrUM2sjEDA", "alias": "nordahl-pharmacy-san-marcos", "name": "Nordahl Pharmacy", "image_url": "https://s3-media1.fl.yelpcdn.com/bphoto/AEJ77J-IhnJJA0UgekmwXw/o.jpg", "is_closed": false, "url": "https://www.yelp.com/biz/nordahl-pharmacy-san-marcos?adjust_creative=hE8bi2YODO-vfPOp0t5Rkw&utm_campaign=yelp_api_v3&utm_medium=api_v3_business_search&utm_source=hE8bi2YODO-vfPOp0t5Rkw", "review_count": 8, "categories": [{"alias": "pharmacy", "title": "Pharmacy"}], "rating": 4.5, "coordinates": {"latitude": 33.134497, "longitude": -117.119173}, "transactions": [], "location": {"address1": "740 Nordahl Rd", "address2": "Ste 120", "address3": null, "city": "San Marcos", "zip_code": "92069", "country": "US", "state": "CA", "display_address": ["740 Nordahl Rd", "Ste 120", "San Marcos, CA 92069"]}, "phone": "+17605010030", "display_phone": "(760) 501-0030", "distance": 4550.155500100675}, {"id": "JiSnTdPgu9sh9EYHAdjV1A", "alias": "cvs-pharmacy-escondido-11", "name": "CVS Pharmacy", "image_url": "https://s3-media3.fl.yelpcdn.com/bphoto/eY7_3kWQgxiZ6CkiEFl_jA/o.jpg", "is_closed": false, "url": "https://www.yelp.com/biz/cvs-pharmacy-escondido-11?adjust_creative=hE8bi2YODO-vfPOp0t5Rkw&utm_campaign=yelp_api_v3&utm_medium=api_v3_business_search&utm_source=hE8bi2YODO-vfPOp0t5Rkw", "review_count": 2, "categories": [{"alias": "drugstores", "title": "Drugstores"}, {"alias": "pharmacy", "title": "Pharmacy"}, {"alias": "convenience", "title": "Convenience Stores"}], "rating": 5.0, "coordinates": {"latitude": 33.0684, "longitude": -117.0653}, "transactions": [], "location": {"address1": "280 E Via Rancho Pkwy", "address2": null, "address3": null, "city": "Escondido", "zip_code": "92025", "country": "US", "state": "CA", "display_address": ["280 E Via Rancho Pkwy", "Escondido, CA 92025"]}, "phone": "+17607059020", "display_phone": "(760) 705-9020", "distance": 7252.041780812471}, {"id": "ql5AVm_-dhPFKbr96LQWqA", "alias": "trillium-pharmacy-escondido", "name": "Trillium Pharmacy", "image_url": "https://s3-media4.fl.yelpcdn.com/bphoto/qc-vHRUB5FQbU5x0onijow/o.jpg", "is_closed": false, "url": "https://www.yelp.com/biz/trillium-pharmacy-escondido?adjust_creative=hE8bi2YODO-vfPOp0t5Rkw&utm_campaign=yelp_api_v3&utm_medium=api_v3_business_search&utm_source=hE8bi2YODO-vfPOp0t5Rkw", "review_count": 6, "categories": [{"alias": "drugstores", "title": "Drugstores"}, {"alias": "mobilityequipment", "title": "Mobility Equipment Sales & Services"}], "rating": 3.0, "coordinates": {"latitude": 33.1213340759277, "longitude": -117.077896118164}, "transactions": [], "price": "$", "location": {"address1": "239 S Juniper St", "address2": null, "address3": "", "city": "Escondido", "zip_code": "92025", "country": "US", "state": "CA", "display_address": ["239 S Juniper St", "Escondido, CA 92025"]}, "phone": "+17604804080", "display_phone": "(760) 480-4080", "distance": 1482.0033497548143}, {"id": "qoFsbcAt5oLPLVDzbK82bg", "alias": "cvs-pharmacy-escondido-4", "name": "CVS Pharmacy", "image_url": "https://s3-media1.fl.yelpcdn.com/bphoto/20gV1p3TAQd6148eRkNZDw/o.jpg", "is_closed": false, "url": "https://www.yelp.com/biz/cvs-pharmacy-escondido-4?adjust_creative=hE8bi2YODO-vfPOp0t5Rkw&utm_campaign=yelp_api_v3&utm_medium=api_v3_business_search&utm_source=hE8bi2YODO-vfPOp0t5Rkw", "review_count": 15, "categories": [{"alias": "drugstores", "title": "Drugstores"}, {"alias": "pharmacy", "title": "Pharmacy"}, {"alias": "convenience", "title": "Convenience Stores"}], "rating": 2.5, "coordinates": {"latitude": 33.1085, "longitude": -117.1052}, "transactions": [], "price": "$", "location": {"address1": "1560 West Valley Pkwy", "address2": null, "address3": null, "city": "Escondido", "zip_code": "92029", "country": "US", "state": "CA", "display_address": ["1560 West Valley Pkwy", "Escondido, CA 92029"]}, "phone": "+17607389835", "display_phone": "(760) 738-9835", "distance": 4274.7756222316}, {"id": "RgNaUkV-wM2E82Da0lr4Jw", "alias": "felicita-pharmacy-escondido", "name": "Felicita Pharmacy", "image_url": "", "is_closed": false, "url": "https://www.yelp.com/biz/felicita-pharmacy-escondido?adjust_creative=hE8bi2YODO-vfPOp0t5Rkw&utm_campaign=yelp_api_v3&utm_medium=api_v3_business_search&utm_source=hE8bi2YODO-vfPOp0t5Rkw", "review_count": 8, "categories": [{"alias": "pharmacy", "title": "Pharmacy"}], "rating": 4.5, "coordinates": {"latitude": 33.090741, "longitude": -117.0791572}, "transactions": [], "location": {"address1": "625 W Citracado Pkwy", "address2": "Ste 106", "address3": "", "city": "Escondido", "zip_code": "92025", "country": "US", "state": "CA", "display_address": ["625 W Citracado Pkwy", "Ste 106", "Escondido, CA 92025"]}, "phone": "+17604328520", "display_phone": "(760) 432-8520", "distance": 4823.653569534321}, {"id": "41kcwnfSlvLEhdxWQePbEQ", "alias": "cvs-pharmacy-escondido-12", "name": "CVS Pharmacy", "image_url": "https://s3-media3.fl.yelpcdn.com/bphoto/S348I2cTfi8q4o81neyuJw/o.jpg", "is_closed": false, "url": "https://www.yelp.com/biz/cvs-pharmacy-escondido-12?adjust_creative=hE8bi2YODO-vfPOp0t5Rkw&utm_campaign=yelp_api_v3&utm_medium=api_v3_business_search&utm_source=hE8bi2YODO-vfPOp0t5Rkw", "review_count": 3, "categories": [{"alias": "drugstores", "title": "Drugstores"}, {"alias": "convenience", "title": "Convenience Stores"}, {"alias": "pharmacy", "title": "Pharmacy"}], "rating": 3.5, "coordinates": {"latitude": 33.1135, "longitude": -117.0993}, "transactions": [], "location": {"address1": "1280 Auto Park Way", "address2": null, "address3": null, "city": "Escondido", "zip_code": "92029", "country": "US", "state": "CA", "display_address": ["1280 Auto Park Way", "Escondido, CA 92029"]}, "phone": "+17607050044", "display_phone": "(760) 705-0044", "distance": 3496.408417499756}, {"id": "j0_bXVmBy0KQeIunibshhw", "alias": "rite-aid-escondido-2", "name": "Rite Aid", "image_url": "https://s3-media1.fl.yelpcdn.com/bphoto/9Fwu-BZSWxrSBnX0EkEybw/o.jpg", "is_closed": false, "url": "https://www.yelp.com/biz/rite-aid-escondido-2?adjust_creative=hE8bi2YODO-vfPOp0t5Rkw&utm_campaign=yelp_api_v3&utm_medium=api_v3_business_search&utm_source=hE8bi2YODO-vfPOp0t5Rkw", "review_count": 26, "categories": [{"alias": "drugstores", "title": "Drugstores"}, {"alias": "convenience", "title": "Convenience Stores"}], "rating": 3.0, "coordinates": {"latitude": 33.101933, "longitude": -117.075893}, "transactions": [], "price": "$$", "location": {"address1": "1825 S Centre City Pkwy", "address2": "", "address3": "", "city": "Escondido", "zip_code": "92025", "country": "US", "state": "CA", "display_address": ["1825 S Centre City Pkwy", "Escondido, CA 92025"]}, "phone": "+17607384236", "display_phone": "(760) 738-4236", "distance": 3546.5868682502896}, {"id": "ND-_R1vfzHuatpuWtjcakQ", "alias": "walgreens-escondido-3", "name": "Walgreens", "image_url": "https://s3-media2.fl.yelpcdn.com/bphoto/GWEeanW5wt2Ub2PckKzC8g/o.jpg", "is_closed": false, "url": "https://www.yelp.com/biz/walgreens-escondido-3?adjust_creative=hE8bi2YODO-vfPOp0t5Rkw&utm_campaign=yelp_api_v3&utm_medium=api_v3_business_search&utm_source=hE8bi2YODO-vfPOp0t5Rkw", "review_count": 25, "categories": [{"alias": "cosmetics", "title": "Cosmetics & Beauty Supply"}, {"alias": "drugstores", "title": "Drugstores"}, {"alias": "convenience", "title": "Convenience Stores"}], "rating": 2.0, "coordinates": {"latitude": 33.1263935, "longitude": -117.0846854}, "transactions": [], "price": "$", "location": {"address1": "111 W Washington Ave", "address2": null, "address3": null, "city": "Escondido", "zip_code": "92025", "country": "US", "state": "CA", "display_address": ["111 W Washington Ave", "Escondido, CA 92025"]}, "phone": "+17602910299", "display_phone": "(760) 291-0299", "distance": 1553.3396205142296}, {"id": "41eBlnz03537JIKwkLlbIg", "alias": "express-pharmacy-escondido", "name": "Express Pharmacy", "image_url": "", "is_closed": false, "url": "https://www.yelp.com/biz/express-pharmacy-escondido?adjust_creative=hE8bi2YODO-vfPOp0t5Rkw&utm_campaign=yelp_api_v3&utm_medium=api_v3_business_search&utm_source=hE8bi2YODO-vfPOp0t5Rkw", "review_count": 1, "categories": [{"alias": "pharmacy", "title": "Pharmacy"}], "rating": 5.0, "coordinates": {"latitude": 33.131783, "longitude": -117.069397}, "transactions": [], "location": {"address1": "1111 E Washington Ave", "address2": "Ste C", "address3": "", "city": "Escondido", "zip_code": "92025", "country": "US", "state": "CA", "display_address": ["1111 E Washington Ave", "Ste C", "Escondido, CA 92025"]}, "phone": "+17607557880", "display_phone": "(760) 755-7880", "distance": 207.91268758934152}, {"id": "B5rSOZZERxVTwFTmX554uw", "alias": "cvs-pharmacy-escondido-13", "name": "CVS Pharmacy y m\u00e1s", "image_url": "https://s3-media1.fl.yelpcdn.com/bphoto/pB3QStypR5aeOxsg6UBfLw/o.jpg", "is_closed": false, "url": "https://www.yelp.com/biz/cvs-pharmacy-escondido-13?adjust_creative=hE8bi2YODO-vfPOp0t5Rkw&utm_campaign=yelp_api_v3&utm_medium=api_v3_business_search&utm_source=hE8bi2YODO-vfPOp0t5Rkw", "review_count": 31, "categories": [{"alias": "drugstores", "title": "Drugstores"}, {"alias": "pharmacy", "title": "Pharmacy"}, {"alias": "convenience", "title": "Convenience Stores"}], "rating": 1.5, "coordinates": {"latitude": 33.1034520725482, "longitude": -117.077156479029}, "transactions": [], "price": "$$", "location": {"address1": "1655 South Center City", "address2": "", "address3": "", "city": "Escondido", "zip_code": "92025", "country": "US", "state": "CA", "display_address": ["1655 South Center City", "Escondido, CA 92025"]}, "phone": "+17607469400", "display_phone": "(760) 746-9400", "distance": 3399.6711668796024}, {"id": "W6ye1DzU3MtjiKUEoyPtfA", "alias": "walmart-pharmacy-escondido-2", "name": "Walmart Pharmacy", "image_url": "https://s3-media2.fl.yelpcdn.com/bphoto/jLtGwSYHiN_qT2TsaGGcbA/o.jpg", "is_closed": false, "url": "https://www.yelp.com/biz/walmart-pharmacy-escondido-2?adjust_creative=hE8bi2YODO-vfPOp0t5Rkw&utm_campaign=yelp_api_v3&utm_medium=api_v3_business_search&utm_source=hE8bi2YODO-vfPOp0t5Rkw", "review_count": 2, "categories": [{"alias": "pharmacy", "title": "Pharmacy"}], "rating": 3.0, "coordinates": {"latitude": 33.1312259, "longitude": -117.0657221}, "transactions": [], "location": {"address1": "1266 East Valley Pkwy", "address2": null, "address3": null, "city": "Escondido", "zip_code": "92027", "country": "US", "state": "CA", "display_address": ["1266 East Valley Pkwy", "Escondido, CA 92027"]}, "phone": "+17608716762", "display_phone": "(760) 871-6762", "distance": 385.07035967577116}, {"id": "H1gBZYpHb3VZ_Ca_YSCKlQ", "alias": "rite-aid-valley-center", "name": "Rite Aid", "image_url": "", "is_closed": false, "url": "https://www.yelp.com/biz/rite-aid-valley-center?adjust_creative=hE8bi2YODO-vfPOp0t5Rkw&utm_campaign=yelp_api_v3&utm_medium=api_v3_business_search&utm_source=hE8bi2YODO-vfPOp0t5Rkw", "review_count": 9, "categories": [{"alias": "drugstores", "title": "Drugstores"}, {"alias": "convenience", "title": "Convenience Stores"}], "rating": 4.0, "coordinates": {"latitude": 33.230946, "longitude": -117.023853}, "transactions": [], "location": {"address1": "28535 Cole Grade Rd", "address2": "", "address3": null, "city": "Valley Center", "zip_code": "92082", "country": "US", "state": "CA", "display_address": ["28535 Cole Grade Rd", "Valley Center, CA 92082"]}, "phone": "+17607514351", "display_phone": "(760) 751-4351", "distance": 11665.312613844171}, {"id": "-AVNcHMAqK6Fc_yJx8Guag", "alias": "community-pharmacy-of-valley-center-valley-center", "name": "Community Pharmacy of Valley Center", "image_url": "https://s3-media4.fl.yelpcdn.com/bphoto/cCtCvNrlwSKZwPCgLO8FRA/o.jpg", "is_closed": false, "url": "https://www.yelp.com/biz/community-pharmacy-of-valley-center-valley-center?adjust_creative=hE8bi2YODO-vfPOp0t5Rkw&utm_campaign=yelp_api_v3&utm_medium=api_v3_business_search&utm_source=hE8bi2YODO-vfPOp0t5Rkw", "review_count": 15, "categories": [{"alias": "drugstores", "title": "Drugstores"}], "rating": 3.5, "coordinates": {"latitude": 33.2306623717912, "longitude": -117.025690606152}, "transactions": [], "location": {"address1": "29115 Valley Center Rd", "address2": "Ste F", "address3": "", "city": "Valley Center", "zip_code": "92082", "country": "US", "state": "CA", "display_address": ["29115 Valley Center Rd", "Ste F", "Valley Center, CA 92082"]}, "phone": "+17607491156", "display_phone": "(760) 749-1156", "distance": 11576.19878652663}], "total": 115, "region": {"center": {"longitude": -117.0703125, "latitude": 33.13348393755737}}}